[
  {
    "_id": "67e168ddd6d2181d258f797a",
    "Stephen Aronson": {
      "city": "Beverly Hills, Michigan, USA",
      "lat": 42.5226219,
      "lng": 42.5226219
    }
  },
  {
    "_id": "67e168ddd6d2181d258f797b",
    "Albert Aronson": {
      "city": "Somerville, MA",
      "lat": 42.4850931,
      "lng": 42.4850931
    }
  },
  {
    "_id": "67e168ddd6d2181d258f797c",
    "Harry Selig": {
      "city": "Rhode Island, USA",
      "lat": 42.3788774,
      "lng": 42.3788774
    }
  },
  {
    "_id": "67e168ddd6d2181d258f797d",
    "Liana Rosario": {
      "city": "New York City, New York, USA",
      "lat": 40.7127281,
      "lng": 40.7127281
    }
  },
  {
    "_id": "67e168ddd6d2181d258f797e",
    "Rachel Elise Aronson": {
      "city": "Atlantic City, Atlantic, New Jersey, USA",
      "lat": 37.5867433,
      "lng": 37.5867433
    }
  },
  {
    "_id": "67e168ddd6d2181d258f797f",
    "Marie L Langner": {
      "city": "Philadelphia, Pennsylvania, USA",
      "lat": 37.5385087,
      "lng": 37.5385087
    }
  },
  {
    "_id": "67e16a274b47fcf0c02c13e6",
    "Stephen Aronson": {
      "city": "Beverly Hills, Michigan, USA",
      "lat": 42.5226219,
      "lng": 42.5226219
    }
  },
  {
    "_id": "67e16a274b47fcf0c02c13e7",
    "Albert Aronson": {
      "city": "Somerville, MA",
      "lat": 42.4850931,
      "lng": 42.4850931
    }
  },
  {
    "_id": "67e16a274b47fcf0c02c13e8",
    "Harry Selig": {
      "city": "Rhode Island, USA",
      "lat": 42.3788774,
      "lng": 42.3788774
    }
  },
  {
    "_id": "67e16a274b47fcf0c02c13e9",
    "Liana Rosario": {
      "city": "New York City, New York, USA",
      "lat": 40.7127281,
      "lng": 40.7127281
    }
  },
  {
    "_id": "67e16a274b47fcf0c02c13ea",
    "Rachel Elise Aronson": {
      "city": "Atlantic City, Atlantic, New Jersey, USA",
      "lat": 37.5867433,
      "lng": 37.5867433
    }
  },
  {
    "_id": "67e16a274b47fcf0c02c13eb",
    "Marie L Langner": {
      "city": "Philadelphia, Pennsylvania, USA",
      "lat": 37.5385087,
      "lng": 37.5385087
    }
  },
  {
    "_id": "67e16a90e37f5180af2a36d4",
    "Stephen Aronson": {
      "city": "Beverly Hills, Michigan, USA",
      "lat": 42.5226219,
      "lng": 42.5226219
    }
  },
  {
    "_id": "67e16a90e37f5180af2a36d5",
    "Albert Aronson": {
      "city": "Somerville, MA",
      "lat": 42.4850931,
      "lng": 42.4850931
    }
  },
  {
    "_id": "67e16a90e37f5180af2a36d6",
    "Harry Selig": {
      "city": "Rhode Island, USA",
      "lat": 42.3788774,
      "lng": 42.3788774
    }
  },
  {
    "_id": "67e16a90e37f5180af2a36d7",
    "Liana Rosario": {
      "city": "New York City, New York, USA",
      "lat": 40.7127281,
      "lng": 40.7127281
    }
  },
  {
    "_id": "67e16a90e37f5180af2a36d8",
    "Rachel Elise Aronson": {
      "city": "Atlantic City, Atlantic, New Jersey, USA",
      "lat": 37.5867433,
      "lng": 37.5867433
    }
  },
  {
    "_id": "67e16a90e37f5180af2a36d9",
    "Marie L Langner": {
      "city": "Philadelphia, Pennsylvania, USA",
      "lat": 37.5385087,
      "lng": 37.5385087
    }
  },
  {
    "_id": "67e16ada7c743db91f7c4f56",
    "Stephen Aronson": {
      "city": "Beverly Hills, Michigan, USA",
      "lat": 42.5226219,
      "lng": 42.5226219
    }
  },
  {
    "_id": "67e16ada7c743db91f7c4f57",
    "Albert Aronson": {
      "city": "Somerville, MA",
      "lat": 42.4850931,
      "lng": 42.4850931
    }
  },
  {
    "_id": "67e16ada7c743db91f7c4f58",
    "Harry Selig": {
      "city": "Rhode Island, USA",
      "lat": 42.3788774,
      "lng": 42.3788774
    }
  },
  {
    "_id": "67e16ada7c743db91f7c4f59",
    "Liana Rosario": {
      "city": "New York City, New York, USA",
      "lat": 40.7127281,
      "lng": 40.7127281
    }
  },
  {
    "_id": "67e16ada7c743db91f7c4f5a",
    "Rachel Elise Aronson": {
      "city": "Atlantic City, Atlantic, New Jersey, USA",
      "lat": 37.5867433,
      "lng": 37.5867433
    }
  },
  {
    "_id": "67e16ada7c743db91f7c4f5b",
    "Marie L Langner": {
      "city": "Philadelphia, Pennsylvania, USA",
      "lat": 37.5385087,
      "lng": 37.5385087
    }
  },
  {
    "_id": "67e16b81db868665acdab3fc",
    "Stephen Aronson": {
      "city": "Beverly Hills, Michigan, USA",
      "lat": 42.5226219,
      "lng": 42.5226219
    }
  },
  {
    "_id": "67e16b81db868665acdab3fd",
    "Albert Aronson": {
      "city": "Somerville, MA",
      "lat": 42.4850931,
      "lng": 42.4850931
    }
  },
  {
    "_id": "67e16b81db868665acdab3fe",
    "Harry Selig": {
      "city": "Rhode Island, USA",
      "lat": 42.3788774,
      "lng": 42.3788774
    }
  },
  {
    "_id": "67e16b81db868665acdab3ff",
    "Liana Rosario": {
      "city": "New York City, New York, USA",
      "lat": 40.7127281,
      "lng": 40.7127281
    }
  },
  {
    "_id": "67e16b81db868665acdab400",
    "Rachel Elise Aronson": {
      "city": "Atlantic City, Atlantic, New Jersey, USA",
      "lat": 37.5867433,
      "lng": 37.5867433
    }
  },
  {
    "_id": "67e16b81db868665acdab401",
    "Marie L Langner": {
      "city": "Philadelphia, Pennsylvania, USA",
      "lat": 37.5385087,
      "lng": 37.5385087
    }
  },
  {
    "_id": "67e16c0832369991c10dfd99",
    "Stephen Aronson": {
      "city": "Beverly Hills, Michigan, USA",
      "lat": 42.5226219,
      "lng": 42.5226219
    }
  },
  {
    "_id": "67e16c0832369991c10dfd9a",
    "Albert Aronson": {
      "city": "Somerville, MA",
      "lat": 42.4850931,
      "lng": 42.4850931
    }
  },
  {
    "_id": "67e16c0832369991c10dfd9b",
    "Harry Selig": {
      "city": "Rhode Island, USA",
      "lat": 42.3788774,
      "lng": 42.3788774
    }
  },
  {
    "_id": "67e16c0832369991c10dfd9c",
    "Liana Rosario": {
      "city": "New York City, New York, USA",
      "lat": 40.7127281,
      "lng": 40.7127281
    }
  },
  {
    "_id": "67e16c0832369991c10dfd9d",
    "Rachel Elise Aronson": {
      "city": "Atlantic City, Atlantic, New Jersey, USA",
      "lat": 37.5867433,
      "lng": 37.5867433
    }
  },
  {
    "_id": "67e16c0832369991c10dfd9e",
    "Marie L Langner": {
      "city": "Philadelphia, Pennsylvania, USA",
      "lat": 37.5385087,
      "lng": 37.5385087
    }
  },
  {
    "_id": "67e16c549a0f406978ec247c",
    "Stephen Aronson": {
      "city": "Beverly Hills, Michigan, USA",
      "lat": 42.5226219,
      "lng": 42.5226219
    }
  },
  {
    "_id": "67e16c549a0f406978ec247d",
    "Albert Aronson": {
      "city": "Somerville, MA",
      "lat": 42.4850931,
      "lng": 42.4850931
    }
  },
  {
    "_id": "67e16c549a0f406978ec247e",
    "Harry Selig": {
      "city": "Rhode Island, USA",
      "lat": 42.3788774,
      "lng": 42.3788774
    }
  },
  {
    "_id": "67e16c549a0f406978ec247f",
    "Liana Rosario": {
      "city": "New York City, New York, USA",
      "lat": 40.7127281,
      "lng": 40.7127281
    }
  },
  {
    "_id": "67e16c549a0f406978ec2480",
    "Rachel Elise Aronson": {
      "city": "Atlantic City, Atlantic, New Jersey, USA",
      "lat": 37.5867433,
      "lng": 37.5867433
    }
  },
  {
    "_id": "67e16c549a0f406978ec2481",
    "Marie L Langner": {
      "city": "Philadelphia, Pennsylvania, USA",
      "lat": 37.5385087,
      "lng": 37.5385087
    }
  }
]
